{"type": "FeatureCollection","features": [{"type":"Feature","geometry":{"type":"Point","coordinates":[104.04833333333333,30.243333333333336]},"properties":{"name":"110kV视高变电站","psr":"03000000100","voltage":"交流110kV"},"id":"88dfc7af-a770-4eb5-9c3a-ddebd112a31c"},{"type":"Feature","geometry":{"type":"Point","coordinates":[104.20722222222223,29.77583333333333]},"properties":{"name":"35kV北斗变电站","psr":"03000000100","voltage":"交流35kV"},"id":"b85ab8c2-68e3-4c7d-9d0e-adc4fba46b84"},{"type":"Feature","geometry":{"type":"Point","coordinates":[104.07527777777777,30.028055555555554]},"properties":{"name":"220kV枣树变电站","psr":"03000000100","voltage":"交流220kV"},"id":"33c9981a-0423-4f4a-9ff0-6e6d8096b1bf"},{"type":"Feature","geometry":{"type":"Point","coordinates":[104.1413888888889,29.986666666666668]},"properties":{"name":"110kV仁寿变电站","psr":"03000000100","voltage":"交流110kV"},"id":"6be5bb48-394b-4f83-bdf8-82b3b2b00581"},{"type":"Feature","geometry":{"type":"Point","coordinates":[104.36138888888888,29.829444444444444]},"properties":{"name":"110kV禄加变电站","psr":"03000000100","voltage":"交流110kV"},"id":"8ce920cb-391f-4936-900f-708042da1968"},{"type":"Feature","geometry":{"type":"Point","coordinates":[104.30444444444444,29.924722222222226]},"properties":{"name":"110kV富加变电站","psr":"03000000100","voltage":"交流110kV"},"id":"d571f4b3-4e22-48f5-a8ca-19c718cfee01"},{"type":"Feature","geometry":{"type":"Point","coordinates":[104.04083333333332,30.196944444444444]},"properties":{"name":"35kV清水变电站","psr":"03000000100","voltage":"交流35kV"},"id":"7444c39a-5fb6-47f9-85f4-cc52b8b2c6e5"},{"type":"Feature","geometry":{"type":"Point","coordinates":[104.17500000000001,30.16444444444444]},"properties":{"name":"35kV文宫变电站","psr":"03000000100","voltage":"交流35kV"},"id":"3e945561-0470-4692-89df-9ec904db9997"},{"type":"Feature","geometry":{"type":"Point","coordinates":[104.30916666666667,30.096666666666664]},"properties":{"name":"35kV龙马变电站","psr":"03000000100","voltage":"交流35kV"},"id":"a5851571-6496-4a08-8a7d-ffed45155be3"},{"type":"Feature","geometry":{"type":"Point","coordinates":[104.43333333333334,29.866111111111113]},"properties":{"name":"35kV禾加变电站","psr":"03000000100","voltage":"交流35kV"},"id":"19df8491-499b-4fd0-88b0-9745456d0244"},{"type":"Feature","geometry":{"type":"Point","coordinates":[103.85214449,30.11589958]},"properties":{"name":"220kV镇江变电站","psr":"03000000100","voltage":"交流220kV"},"id":"46270260-ce77-4063-a09d-35426eb22249"},{"type":"Feature","geometry":{"type":"Point","coordinates":[103.74863897,30.00805713]},"properties":{"name":"220kV爱国变电站","psr":"03000000100","voltage":"交流220kV"},"id":"6eb6de11-d56a-47fb-863e-3088152a0031"},{"type":"Feature","geometry":{"type":"Point","coordinates":[104.20666666666665,29.778055555555554]},"properties":{"name":"35kV彰加变电站","psr":"03000000100","voltage":"交流35kV"},"id":"7b5b6688-ba21-4963-8df6-ede4be613aaa"},{"type":"Feature","geometry":{"type":"Point","coordinates":[104.14416666666668,29.921666666666667]},"properties":{"name":"35kV满井变电站","psr":"03000000100","voltage":"交流35kV"},"id":"21fe55a6-fc42-4636-b69a-2100e741745f"},{"type":"Feature","geometry":{"type":"Point","coordinates":[104.27916666666667,29.697222222222223]},"properties":{"name":"35kV咸安变电站","psr":"03000000100","voltage":"交流35kV"},"id":"987dac78-868e-4f0e-a9b6-7e4d06ca8172"},{"type":"Feature","geometry":{"type":"Point","coordinates":[104.37027777777777,30.21]},"properties":{"name":"35kV青岗变电站","psr":"03000000100","voltage":"交流35kV"},"id":"7459ec5b-c9cc-4370-84e9-6e7e52db636c"},{"type":"Feature","geometry":{"type":"Point","coordinates":[104.41361111111112,29.783611111111114]},"properties":{"name":"35kV天峨变电站","psr":"03000000100","voltage":"交流35kV"},"id":"68d923c1-2347-453d-9752-293250a73f38"},{"type":"Feature","geometry":{"type":"Point","coordinates":[104.05361111111111,30.029166666666665]},"properties":{"name":"35kV黑龙滩变电站","psr":"03000000100","voltage":"交流35kV"},"id":"c629030b-35f8-4aa9-919f-93d77a5e362c"},{"type":"Feature","geometry":{"type":"Point","coordinates":[104.1575,30.0125]},"properties":{"name":"110kV柏林变电站","psr":"03000000100","voltage":"交流110kV"},"id":"2ed50bda-170a-47fa-ae93-5b5c1e576241"},{"type":"Feature","geometry":{"type":"Point","coordinates":[104.3388888888889,29.72972222222222]},"properties":{"name":"110kV大勇变电站","psr":"03000000100","voltage":"交流110kV"},"id":"82d16eb6-56a1-4bfb-90fe-213d4c1698df"},{"type":"Feature","geometry":{"type":"Point","coordinates":[103.86346944444443,30.313577777777777]},"properties":{"name":"110kV青龙变电站","psr":"03000000100","voltage":"交流110kV"},"id":"eacd2fad-2c1b-44ee-9418-b35af4eec485"},{"type":"Feature","geometry":{"type":"Point","coordinates":[103.49472222222222,29.9925]},"properties":{"name":"110kV何场变电站","psr":"03000000100","voltage":"交流110kV"},"id":"0276fe62-a537-4ff2-aed3-5bcced82d4fa"},{"type":"Feature","geometry":{"type":"Point","coordinates":[103.41944444444445,29.89527777777778]},"properties":{"name":"110kV福宝变电站","psr":"03000000100","voltage":"交流110kV"},"id":"13b33f8c-ed20-4a6a-a2c9-235765fbfd89"},{"type":"Feature","geometry":{"type":"Point","coordinates":[103.31777777777778,29.95861111111111]},"properties":{"name":"35kV中山变电站","psr":"03000000100","voltage":"交流35kV"},"id":"956c231a-d317-49f3-8a41-e0de60e0630a"},{"type":"Feature","geometry":{"type":"Point","coordinates":[103.22777777777777,29.71944444444444]},"properties":{"name":"35kV柳江变电站","psr":"03000000100","voltage":"交流35kV"},"id":"8d9238a1-7b0f-4088-9cc9-9f62352b0763"},{"type":"Feature","geometry":{"type":"Point","coordinates":[103.83602777777777,20.83352777777778]},"properties":{"name":"110kV兰店变电站","psr":"03000000100","voltage":"交流110kV"},"id":"8d658848-db68-47a5-83bd-cb8655c30857"},{"type":"Feature","geometry":{"type":"Point","coordinates":[103.88608333333335,29.84347222222222]},"properties":{"name":"35kV穆家埂变电站","psr":"03000000100","voltage":"交流35kV"},"id":"64b6afc8-f12b-4bac-a4d2-216d453332fd"},{"type":"Feature","geometry":{"type":"Point","coordinates":[103.42111111111112,29.895555555555553]},"properties":{"name":"220kV天井坎变电站","psr":"03000000100","voltage":"交流220kV"},"id":"5277f426-e706-4d36-ad12-351ba8f74922"},{"type":"Feature","geometry":{"type":"Point","coordinates":[103.80935984,30.04126498]},"properties":{"name":"220kV平春变电站","psr":"03000000100","voltage":"交流220kV"},"id":"771dcaab-0b1e-4703-9d9c-3c1c37a5862f"},{"type":"Feature","geometry":{"type":"Point","coordinates":[103.655476,30.064803]},"properties":{"name":"110kV东馆变电站","psr":"03000000100","voltage":"交流110kV"},"id":"e86032e9-e677-406b-b65c-695d4a9b447a"},{"type":"Feature","geometry":{"type":"Point","coordinates":[103.846222,30.0734001]},"properties":{"name":"110kV大石桥变电站","psr":"03000000100","voltage":"交流110kV"},"id":"643a29cb-e274-4492-a004-d886340501ba"},{"type":"Feature","geometry":{"type":"Point","coordinates":[103.847058,30.112344]},"properties":{"name":"110kV龙亭变电站","psr":"03000000100","voltage":"交流110kV"},"id":"52e6c466-c6db-452f-994d-e08660783e90"},{"type":"Feature","geometry":{"type":"Point","coordinates":[103.723415,30.162382]},"properties":{"name":"35kV多悦变电站","psr":"03000000100","voltage":"交流35kV"},"id":"d9d98155-56fe-4400-a5c4-f01ae2d4730c"},{"type":"Feature","geometry":{"type":"Point","coordinates":[103.758648,29.969977]},"properties":{"name":"35kV五里山变电站","psr":"03000000100","voltage":"交流35kV"},"id":"2e4d365b-1481-4515-8d8f-9adc83b12dfa"},{"type":"Feature","geometry":{"type":"Point","coordinates":[103.803596,29.903368]},"properties":{"name":"35kV黑龙变电站","psr":"03000000100","voltage":"交流35kV"},"id":"8f769dfe-3bfa-454d-9a64-44c75208a748"},{"type":"Feature","geometry":{"type":"Point","coordinates":[103.832419,29.982727]},"properties":{"name":"35kV永寿变电站","psr":"03000000100","voltage":"交流35kV"},"id":"b2105486-1261-4b88-9726-0d1b01f5eaaf"},{"type":"Feature","geometry":{"type":"Point","coordinates":[103.929784,30.027931]},"properties":{"name":"35kV观音变电站","psr":"03000000100","voltage":"交流35kV"},"id":"256aecd0-df5d-4b66-a0e1-9a73a877771c"},{"type":"Feature","geometry":{"type":"Point","coordinates":[103.668479,29.997229]},"properties":{"name":"35kV龙兴变电站","psr":"03000000100","voltage":"交流35kV"},"id":"53b66298-8be2-4e0d-8c84-48490167b5e9"},{"type":"Feature","geometry":{"type":"Point","coordinates":[103.841706,30.094119]},"properties":{"name":"110kV科工园变电站","psr":"03000000100","voltage":"交流110kV"},"id":"1f7b60d2-01e3-4401-a9f2-26ab8d30d590"},{"type":"Feature","geometry":{"type":"Point","coordinates":[103.655476,30.064803]},"properties":{"name":"110kV安平变电站","psr":"03000000100","voltage":"交流110kV"},"id":"9947fc94-142c-473a-8da1-6807c513598d"},{"type":"Feature","geometry":{"type":"Point","coordinates":[103.853627,30.043969]},"properties":{"name":"110kV金龙变电站","psr":"03000000100","voltage":"交流110kV"},"id":"bcc144b7-cabd-449f-8033-ce7d36ec3748"},{"type":"Feature","geometry":{"type":"Point","coordinates":[103.731207,29.921294]},"properties":{"name":"110kV思蒙变电站","psr":"03000000100","voltage":"交流110kV"},"id":"fe73247d-7ca4-4217-870d-1bef5bb584b1"},{"type":"Feature","geometry":{"type":"Point","coordinates":[103.786331,29.999567]},"properties":{"name":"110kV松江变电站","psr":"03000000100","voltage":"交流110kV"},"id":"6d8edd6c-6bd0-4c0e-85d9-4efde2dbfd2e"},{"type":"Feature","geometry":{"type":"Point","coordinates":[103.815038,30.062191]},"properties":{"name":"110kV庄店变电站","psr":"03000000100","voltage":"交流110kV"},"id":"ee0d43d9-5b49-430b-8efe-530253402346"},{"type":"Feature","geometry":{"type":"Point","coordinates":[103.568059,30.054723]},"properties":{"name":"35kV广济变电站","psr":"03000000100","voltage":"交流35kV"},"id":"afdb351b-4ede-4c14-8391-526a8764f2fd"},{"type":"Feature","geometry":{"type":"Point","coordinates":[103.35388888888889,29.92361111111111]},"properties":{"name":"110kV洪川变电站","psr":"03000000100","voltage":"交流110kV"},"id":"2fe64463-a312-4834-8750-66e46ac5cdcb"},{"type":"Feature","geometry":{"type":"Point","coordinates":[103.79741666666665,29.737861111111112]},"properties":{"name":"35kV罗坝变电站","psr":"03000000100","voltage":"交流35kV"},"id":"bd3f701b-93f8-4e5a-b303-9d51cfca0d51"},{"type":"Feature","geometry":{"type":"Point","coordinates":[104.03861111111111,30.136666666666667]},"properties":{"name":"35kV杨柳变电站","psr":"03000000100","voltage":"交流35kV"},"id":"2c728e7d-6f99-41b4-8b20-068f4d3dc9d5"},{"type":"Feature","geometry":{"type":"Point","coordinates":[103.92418538,30.04684891]},"properties":{"name":"220kV福盛变电站","psr":"03000000100","voltage":"交流220kV"},"id":"af71c196-3194-4bdb-8244-bdc095e31e87"},{"type":"Feature","geometry":{"type":"Point","coordinates":[104.14027777777778,29.813055555555557]},"properties":{"name":"110kV新桥变电站","psr":"03000000100","voltage":"交流110kV"},"id":"aca7e4d2-1b21-47ac-a4aa-ce9486b18975"},{"type":"Feature","geometry":{"type":"Point","coordinates":[104.035,29.049722222222226]},"properties":{"name":"110kV正兴变电站","psr":"03000000100","voltage":"交流110kV"},"id":"eefa7e02-e209-486e-8d44-3130b42996cd"},{"type":"Feature","geometry":{"type":"Point","coordinates":[103.38722222222223,29.886666666666667]},"properties":{"name":"110kV罗庙变电站","psr":"03000000100","voltage":"交流110kV"},"id":"9cd6f0f0-85e4-46cd-819f-47fa367c10c7"},{"type":"Feature","geometry":{"type":"Point","coordinates":[104.2461111111111,29.828888888888887]},"properties":{"name":"220kV宝飞变电站","psr":"03000000100","voltage":"交流220kV"},"id":"cc369f41-bf90-4828-913c-5c038faebc00"},{"type":"Feature","geometry":{"type":"Point","coordinates":[103.24333333333334,29.83]},"properties":{"name":"35kV东岳变电站","psr":"03000000100","voltage":"交流35kV"},"id":"67377d41-a3c6-4c08-b4e1-a9af627106ca"},{"type":"Feature","geometry":{"type":"Point","coordinates":[103.45722222222223,30.03111111111111]},"properties":{"name":"35kV中隆变电站","psr":"03000000100","voltage":"交流35kV"},"id":"0570f551-57e8-46ef-8d7d-0f18d73f4cc2"},{"type":"Feature","geometry":{"type":"Point","coordinates":[103.83522222222221,29.86341666666667]},"properties":{"name":"110kV青竹变电站","psr":"03000000100","voltage":"交流110kV"},"id":"d76bae3e-36a5-4c00-a19a-eaa236434755"},{"type":"Feature","geometry":{"type":"Point","coordinates":[103.34777777777778,29.999166666666667]},"properties":{"name":"110kV木林变电站","psr":"03000000100","voltage":"交流110kV"},"id":"9cc8acf0-a3b5-4d49-a719-4b3d629b1398"},{"type":"Feature","geometry":{"type":"Point","coordinates":[103.778996,30.074236]},"properties":{"name":"110kV尚义变电站","psr":"03000000100","voltage":"交流110kV"},"id":"2b7b151e-197e-4868-bb4b-abb8460ebd5c"},{"type":"Feature","geometry":{"type":"Point","coordinates":[103.753641,30.022451]},"properties":{"name":"110kV铝城变电站","psr":"03000000100","voltage":"交流110kV"},"id":"b0a89791-1608-47f7-b170-f08a551e1a55"},{"type":"Feature","geometry":{"type":"Point","coordinates":[104.19444444444444,29.975555555555555]},"properties":{"name":"110kV红星变电站","psr":"03000000100","voltage":"交流110kV"},"id":"3cafedf6-e950-4cc2-9a6b-35f96043f47e"},{"type":"Feature","geometry":{"type":"Point","coordinates":[103.51194444444444,30.025]},"properties":{"name":"110kV丹棱变电站","psr":"03000000100","voltage":"交流110kV"},"id":"2e70cc61-9179-40f6-b687-a54ed4d3cf7e"},{"type":"Feature","geometry":{"type":"Point","coordinates":[103.5375,29.919722222222223]},"properties":{"name":"35kV杨场变电站","psr":"03000000100","voltage":"交流35kV"},"id":"a075468b-9a7c-49a4-907c-02de909a395c"},{"type":"Feature","geometry":{"type":"Point","coordinates":[104.09920555555556,30.37311111111111]},"properties":{"name":"35kV兴家变电站","psr":"03000000100","voltage":"交流35kV"},"id":"adf7dc08-6b8d-4110-b34b-cfb86c49f3bf"},{"type":"Feature","geometry":{"type":"Point","coordinates":[103.846775,30.33623888888889]},"properties":{"name":"110kV桂林变电站","psr":"03000000100","voltage":"交流110kV"},"id":"ce103a69-13ae-4509-8304-9f8b49b9b232"},{"type":"Feature","geometry":{"type":"Point","coordinates":[103.88904722222222,30.246744444444445]},"properties":{"name":"110kV双河变电站","psr":"03000000100","voltage":"交流110kV"},"id":"7d5d5a8f-e2e0-426e-99d5-523d3a6161d2"},{"type":"Feature","geometry":{"type":"Point","coordinates":[103.93101111111112,30.33426111111111]},"properties":{"name":"110kV园门变电站","psr":"03000000100","voltage":"交流110kV"},"id":"e3b68f69-0c88-46bc-86c2-293f9e6fbdb5"},{"type":"Feature","geometry":{"type":"Point","coordinates":[111.78216666666667,30.176408333333335]},"properties":{"name":"110kV灵石变电站","psr":"03000000100","voltage":"交流110kV"},"id":"9688e7de-dae8-45fe-aa49-673519165ea1"},{"type":"Feature","geometry":{"type":"Point","coordinates":[103.85662777777777,30.335780555555555]},"properties":{"name":"220kV先锋变电站","psr":"03000000100","voltage":"交流220kV"},"id":"8fa6bdfc-3df1-4d21-8619-f1f3c503021f"},{"type":"Feature","geometry":{"type":"Point","coordinates":[103.8645,30.208788888888886]},"properties":{"name":"110kV彭溪变电站","psr":"03000000100","voltage":"交流110kV"},"id":"79121691-49ca-4848-bc0b-d9f2e921d5dc"},{"type":"Feature","geometry":{"type":"Point","coordinates":[103.96615833333334,30.20050833333333]},"properties":{"name":"35kV黄丰变电站","psr":"03000000100","voltage":"交流35kV"},"id":"98d2f8d8-58eb-47e8-ac0d-225e3c9bd326"},{"type":"Feature","geometry":{"type":"Point","coordinates":[103.92220277777777,30.26983333333333]},"properties":{"name":"35kV江渎变电站","psr":"03000000100","voltage":"交流35kV"},"id":"202cd42e-1d1a-40e9-85d2-473a705c0e25"},{"type":"Feature","geometry":{"type":"Point","coordinates":[104.28361111111111,30.502777777777776]},"properties":{"name":"35kV保胜变电站","psr":"03000000100","voltage":"交流35kV"},"id":"360e6db4-02ff-4597-a314-ea6a58665267"},{"type":"Feature","geometry":{"type":"Point","coordinates":[103.81177222222222,30.218161111111108]},"properties":{"name":"220kV文庙变电站","psr":"03000000100","voltage":"交流220kV"},"id":"02444760-c967-4cf4-974a-56cbf8ad40f5"},{"type":"Feature","geometry":{"type":"Point","coordinates":[103.78486111111113,30.22592222222222]},"properties":{"name":"35kV谢家变电站","psr":"03000000100","voltage":"交流35kV"},"id":"1b09f5be-f394-4039-aca7-0778439d0c73"},{"type":"Feature","geometry":{"type":"Point","coordinates":[103.790854,30.059473]},"properties":{"name":"35kV象耳变电站","psr":"03000000100","voltage":"交流35kV"},"id":"35c5f7ba-8a78-4be1-b503-f976c8069ffd"},{"type":"Feature","geometry":{"type":"Point","coordinates":[104.08916666666666,30.22583333333333]},"properties":{"name":"35kV帽顶山变电站","psr":"03000000100","voltage":"交流35kV"},"id":"4d5e98dc-de50-4301-9250-cfab556e8551"},{"type":"Feature","geometry":{"type":"Point","coordinates":[104.10388888888889,29.906388888888888]},"properties":{"name":"35kV金凤变电站","psr":"03000000100","voltage":"交流35kV"},"id":"53c3f04d-c1de-4bb1-a38d-1356ff822b06"},{"type":"Feature","geometry":{"type":"Point","coordinates":[103.36627499999999,30.441655555555556]},"properties":{"name":"35kV陈山变电站","psr":"03000000100","voltage":"交流35kV"},"id":"ee4cba07-ec9b-4582-abce-9ced9c5d9dc7"},{"type":"Feature","geometry":{"type":"Point","coordinates":[104.20496666666665,30.002430555555556]},"properties":{"name":"35kV沙子湾变电站","psr":"03000000100","voltage":"交流35kV"},"id":"4eef0f02-2ca4-46ef-91fa-0f336bd19fdb"}]}